id	dataset	country	commonname	cs	longitude	latitude
159	1001G_RegMap	FRA	MAR2-3	CS77070	3.93333	47.35
265	1001G	FRA	PYL-6	CS77198	-1.16667	44.65
763	1001G	KGZ	Kar-1	CS76522	74.3667	42.3
765	1001G	KGZ	Sus-1	CS76607	73.4	42.1833
766	1001G	KGZ	Dja-1	CS76473	73.6333	42.5833
768	1001G	KGZ	Zal-1	CS76634	76.35	42.8
772	1001G	TJK	Neo-6	CS76560	72.4667	37.35
5151	1001G	UK	UKSE06-325	CS78801	-1.7	52.2
5165	1001G	UK	UKSE06-362	CS78802	0.4	51.3
5768	1001G	UK	UKID63	CS78786	-1.5	54.1
5772	1001G_RegMap	UK	Set-1	CS78787	-2.3	54.1
5784	1001G_RegMap	UK	Ty-1	CS78790	-5.2	56.4
5811	1001G	UK	UKID107	CS78778	-3.1	52.9
6013	1001G_RegMap	SWE	Eden-9	CS76830	18.177	62.877
6025	1001G_RegMap	SWE	Gro-3	CS76889	17.7339	62.6437
6040	1001G_RegMap	SWE	Kni-1	CS76970	13.4	55.66
6073	1001G_RegMap	SWE	ÖMö1-7	CS77147	15.8155	56.1481
6074	1001G_RegMap	SWE	Ör-1	CS77150	16.1408	56.4573
6108	1001G_RegMap	SWE	T480	CS77300	13.1206	55.7989
6150	1001G_RegMap	SWE	T980	CS77327	13.5319	55.9261
6177	1001G_RegMap	SWE	TÄL	03	CS77338	17.69
6180	1001G_RegMap	SWE	TÄL	07	CS77339	17.6906
6184	1001G_RegMap	SWE	TBÖ	01	CS77343	18.4522
6188	1001G_RegMap	SWE	TDr-1	CS77345	14.1386	55.7683
6195	1001G_RegMap	SWE	TDr-9	CS77356	14.1342	55.7708
6209	1001G_RegMap	SWE	TEDEN	02	CS77358	18.1842
6216	1001G_RegMap	SWE	TFÄ	06	CS77362	18.3283
6243	1001G_RegMap	SWE	Tottarp-2	CS77381	13.90045	56.27373
6244	1001G_RegMap	SWE	TRÄ	01	CS77384	18.4728
6898	1001G_RegMap	BEL	An-1	CS76435_CS22626	4.4	51.2167
6911	1001G_RegMap	CPV	Cvi-0	CS76789_CS22614	-23.6167	15.1111
6915	1001G_RegMap	GER	Ei-2	CS76478_CS22616	6.3	50.3
6929	1001G_RegMap	TJK	Kondara	CS76532_CS22651	68.49	38.48
6932	1001G_RegMap	GER	Ler-1	CS77021_CS22618	10.8719	47.984
6938	1001G_RegMap	RUS	Ms-0	CS76555_CS22655	37.6322	55.7522
6939	RegMap	LIB	Mt-0	CS22642	22.46	32.34
6940	1001G_RegMap	GER	Mz-0	CS76557_CS22636	8.3	50.3
6945	1001G_RegMap	NED	Nok-3	CS76562_CS22643	4.45	52.24
6958	1001G_RegMap	FRA	Ra-0	CS76582_CS22632	3.3	46
6961	1001G_RegMap	ESP	Se-0	CS76597_CS22646	-3.53333	38.3333
6963	1001G_RegMap	TJK	Sorbo	CS78917_CS22653	68.48	38.35
6979	1001G_RegMap	SUI	Wei-0	CS76628_CS22622	8.26	47.25
6987	1001G_RegMap	GER	Ak-1	CS76431_CS6602	7.62551	48.0683
7000	1001G_RegMap	GER	Aa-0	CS76428_CS6600	9.57073	50.9167
7002	1001G_RegMap	NED	Baa-1	CS76442_CS22529	6.1	51.3333
7003	1001G	SUI	Bs-1	CS78888	7.5	47.5
7008	1001G_RegMap	NED	Benk-1	CS76447_CS22530	5.675	52
7013	1001G_RegMap	GER	Bd-0	CS76445_CS6612	13.287	52.4584
7025	1001G	ITA	Bl-1	CS76450	11.3396	44.5041
7028	1001G_RegMap	GER	Bch-1	CS76444_CS6609	9.3166	49.5166
7031	1001G_RegMap	GER	Bsch-0	CS76457_CS6630	8.6667	50.0167
7036	1001G	GER	Bu-0	CS78889	9.5	50.5
7062	1001G_RegMap	GER	Ca-0	CS76459_CS6658	8.26607	50.2981
7063	1001G	ESP	Can-0	CS76740	-13.4811	29.2144
7067	1001G	ITA	Ct-1	CS76786	15	37.3
7071	1001G_RegMap	FRA	Chat-1	CS76463_CS22521	1.33867	48.0717
7077	1001G	POR	Co-1	CS76468	-8.25	40.12
7092	1001G_RegMap	FRA	Com-1	CS76469_CS22522	2.823	49.416
7103	1001G	CZE	Dra-0	CS76476	16.2667	49.4167
7106	1001G_RegMap	GER	Dr-0	CS78897_CS6684	13.7336	51.051
7125	1001G	GER	Er-0	CS78898	11.0087	49.5955
7126	1001G_RegMap	FIN	Es-0	CS76484_CS6699	24.5682	60.1997
7127	1001G	EST	Est	CS76485	24.9871	58.6656
7143	1001G_RegMap	NED	Gel-1	CS76492_CS22533	5.86667	51.0167
7164	1001G_RegMap	DEN	Hau-0	CS76915_CS6734	12.5686	55.675
7165	1001G_RegMap	GER	Hn-0	CS76513_CS6739	8.28844	51.3472
7186	1001G_RegMap	LTU	Kn-0	CS76969_CS6762	23.8924	54.8969
7203	1001G	GER	Krot-0	CS76534	11.5722	49.631
7209	1001G	POL	La-0	CS76538	15.2333	52.7333
7217	1001G	FRA	Lm-2	CS76545	0.5	48
7218	1001G	NED	Le-0	CS76540	4.49015	52.1611
7244	1001G_RegMap	GER	Mnz-0	CS76552_CS6794	8.26664	50.001
7255	1001G_RegMap	GER	Mh-0	CS76550_CS6792	7.5	50.95
7268	1001G_RegMap	GER	Np-0	CS76563_CS6806	10.981	52.6969
7273	1001G	GER	No-0	CS77128	13.2995	51.0581
7276	1001G_RegMap	GER	Ob-0	CS76566_CS6816	8.5833	50.2
7282	1001G_RegMap	GER	Or-0	CS76568_CS6822	8.01161	50.3827
7287	1001G_RegMap	GER	Ove-0	CS76569_CS6823	8.42255	53.3422
7288	1001G	NOR	Oy-0	CS77156	6.193019	60.385543
7296	1001G_RegMap	RUS	Petergof	CS77170_CS926	29	59
7298	1001G	AUT	Pi-0	CS76572	10.51	47.04
7316	1001G_RegMap	NED	Rhen-1	CS78916_CS22536	5.56667	51.9667
7323	1001G_RegMap	UKR	Rubezhnoe-1	CS76594_CS927	38.28	49
7333	1001G_RegMap	ITA	Sei-0	CS76599_CS6853	11.5614	46.5438
7346	1001G_RegMap	GER	Sten-0_Ste-0	CS77277_CS6864	11.8558	52.6058
7347	1001G	RUS	Stw-0	CS76605	36	52
7353	1001G_RegMap	NED	Tha-1	CS76611_CS22537	4.3	52.08
7372	1001G_RegMap	AUT	Tscha-1	CS76616_CS22518	9.9042	47.0748
7378	1001G_RegMap	GER	Uk-1	CS76620_CS6879	7.7667	48.0333
7384	1001G_RegMap	NED	Ven-1	CS76624_CS22538	5.55	52.0333
7394	1001G_RegMap	POL	Wa-1	CS76626_CS6885	21	52.3
7404	1001G_RegMap	GER	Wc-1	CS76627_CS6886	10.0667	52.6
7411	1001G_RegMap	GER	Wl-0	CS76630_CS6920	10.8134	47.9299
7521	1001G_RegMap	CZE	Lp2-6	CS77052_CS22595	16.81	49.38
8214	1001G_RegMap	FRA	Gy-0	CS78901_CS22631	2	49
8230	1001G_RegMap	SWE	Algutsrum	CS76657	16.5	56.68
8231	1001G_RegMap	SWE	Brö1-6	CS76726	16	56.3
8240	1001G_RegMap	SWE	Kulturen-1	CS76987	13.196	55.705
8247	1001G_RegMap	SWE	San-2	CS77233	13.74	56.07
8249	1001G_RegMap	SWE	Vimmerby	CS78845	15.8	57.7
8311	1001G_RegMap	AUT	In-0	CS78903_CS1239	11.5	47.5
8312	1001G_RegMap	GER	Is-0	CS78904_CS1241	7.5	50.5
8351	1001G_RegMap	SWE	Ost-0	CS77154_CS1431	18.37	60.25
8354	1001G_RegMap	RUS	Per-1	CS76571_CS1445	56.3167	58
8357	1001G_RegMap	ESP	Pla-0	CS76573_CS1459	2.25	41.5
8376	1001G_RegMap	SWE	Sanna-2	CS77234	18	62.69
8387	1001G_RegMap	SWE	St-0	CS77270_CS1535	18	59
9057	1001G_RegMap	SWE	Vinslöv	CS78847	13.9167	56.1
9058	1001G_RegMap	SWE	Västervik	CS78834	16.6333	57.75
9323	1001G_RegMap	SWE	Ådal	3	CS76644	18.336
9371	1001G_RegMap	SWE	FäL	1	CS76852	18.3175
9394	1001G	SWE	Hag-2	CS76907	16.4063	56.5804
9416	1001G_RegMap	SWE	Kru-3_Kru	3	CS76986	18.3837
9427	1001G_RegMap	SWE	Näs	2	CS77122	18.4055
9470	1001G_RegMap	SWE	Tur-4_Tur	4	CS77399	14.8043
9481	1001G_RegMap	SWE	Yst-1_Yst	1	CS78869	13.8484
9506	1001G	POR	IP-Alo-0	CS76662	-7.47	40.11
9507	1001G	POR	IP-Coa-0	CS76775	-7.5	38.45
9510	1001G	POR	IP-Rei-0	CS77208	-7.59	38.75
9512	1001G	POR	IP-Vid-1	CS78842	-7.84	38.22
9517	1001G	ESP	IP-All-0	CS76659	-7.8	42.19
9518	1001G	ESP	IP-Alm-0	CS76660	-0.36	39.88
9521	1001G	ESP	IP-Bar-1	CS76689	2.13	41.43
9522	1001G	ESP	IP-Bea-0	CS76695	-5.27	36.52
9523	1001G	ESP	IP-Ben-0	CS76700	-2.66	38.37
9524	1001G	ESP	IP-Ber-0	CS78887	-0.56	42.52
9526	1001G	ESP	IP-Cab-3	CS76738	2.39	41.54
9527	1001G	ESP	IP-Cad-0	CS76739	-5.74	40.37
9528	1001G	ESP	IP-Cal-0	CS78890	-1.37	40.94
9529	1001G	ESP	IP-Cap-1	CS76741	-3.36	36.97
9534	1001G	ESP	IP-Cmo-3	CS76774	-4.65	40.05
9535	1001G	ESP	IP-Coc-1	CS76776	3.19	42.31
9537	1001G	ESP	IP-Cum-1	CS76787	-6.66	38.07
9539	1001G	ESP	IP-Deh-1	CS76793	-6.67	40.29
9542	1001G	ESP	IP-Fun-0	CS76872	-4.05	40.79
9544	1001G	ESP	IP-Gua-1	CS76894	-5.33	39.4
9547	1001G	ESP	IP-Hor-0	CS76930	2.62	41.67
9548	1001G	ESP	IP-Hoy-0	CS76939	-5	40.4
9549	1001G	ESP	IP-Hum-2	CS76943	-3.69	42.23
9555	1001G	ESP	IP-Mar-1	CS77068	-3.93	39.58
9557	1001G	ESP	IP-Moa-0	CS77102	0.7	42.46
9559	1001G	ESP	IP-Mon-5	CS77107	-4.38	38.06
9560	1001G	ESP	IP-Mot-0	CS77109	-6.24	38.19
9562	1001G	ESP	IP-Mur-0	CS77115	2	41.67
9564	1001G	ESP	IP-Nog-17	CS77129	-1.6	40.45
9565	1001G	ESP	IP-Orb-10	CS77152	-1.23	42.97
9574	1001G	ESP	IP-Rel-0	CS77209	-2.7	38.6
9577	1001G	ESP	IP-Ria-0	CS77216	2.17	42.34
9579	1001G	ESP	IP-San-10	CS77232	-3.51	38.33
9584	1001G	ESP	IP-Stp-0	CS77283	-3.58	41.19
9586	1001G	ESP	IP-Tam-0	CS77340	-3.27	41.03
9587	1001G	ESP	IP-Tdc-0	CS77344	-1.88	41.5
9591	1001G	ESP	IP-Vad-0	CS78826	-3.59	42.86
9594	1001G	ESP	IP-Vdm-0	CS78837	1.01	42.04
9595	1001G	ESP	IP-Vdt-0	CS78838	-5.5	40.89
9596	1001G	ESP	IP-Ver-5	CS78841	-7.45	41.95
9597	1001G	ESP	IP-Vig-1	CS78843	-2.53	42.31
9598	1001G	ESP	IP-Vim-0	CS78844	-6.51	41.88
9600	1001G	ESP	IP-Vis-0	CS78848	-6.04	39.85
9602	1001G	ESP	IP-Vpa-1	CS78850	-3.96	40.5
9606	1001G	MAR	Aitba-1	CS76649	-7.45	31.48
9612	1001G	RUS	Lesno-2	CS77033	51.94	53.04
9619	1001G	RUS	Basta-1	CS76691	79.48	51.84
9625	1001G	RUS	Kolyv-2	CS76977	82.59	51.31
9629	1001G	RUS	K-oze-1	CS76957	82.18	51.35
9632	1001G	RUS	Lebja-2	CS77016	80.82	51.67
9634	1001G	RUS	Masl-1	CS77073	81.31	54.13
9637	1001G	RUS	Noveg-2	CS77132	80.85	51.77
9640	1001G	RUS	Rakit-1	CS77202	80.06	51.87
9643	1001G	RUS	Sever-1	CS77245	79.31	52.1
9649	1001G	ITA	Bivio-1	CS76713	16.17	39.13
9653	1001G	ITA	Giffo-1	CS76878	16.13	38.44
9657	1001G	ITA	Melic-1	CS77078	16.04	38.45
9659	1001G	ITA	Pigna-1	CS77177	14.18	41.18
9697	1001G	BUL	Dolen-1	CS76802	23.94	41.62
9698	1001G	BUL	Goced-1	CS76882	23.85	41.57
9699	1001G	BUL	Kolar-1	CS76974	23.14	41.37
9713	1001G	BUL	Stara-1	CS77271	25.61	42.49
9716	1001G	BUL	Leska-1-44	CS77030	24.98	41.54
9719	1001G	BUL	Koren-1	CS76983	25.69	41.83
9723	1001G	BUL	Slavi-2	CS77252	23.67	41.42
9726	1001G	GRC	Faneronemi-3	CS76853	22.04	37.07
9736	1001G	ROU	Teiu-2	CS77361	25.17	44.69
9737	1001G	ROU	Ulies-1	CS78815	22.62	45.95
9739	1001G	ROU	Toc-1	CS77370	22.33	46.01
9741	1001G	ROU	Orast-1	CS77151	23.16	45.84
9743	1001G	ROU	Furni-1	CS76873	25	45.14
9748	1001G	SRB	Zagub-1	CS78871	21.71	44.23
9749	1001G	SRB	Knjas-1	CS76971	22.29	43.54
9758	1001G	CHN	Altai-5	CS76433	88.4	47.75
9759	1001G	IRN	Anz-0	CS76439	49.47	37.47
9761	1001G	LBN	Bik-1	CS76449	35.7	33.92
9764	1001G	LBN	Qar-8a	CS76581	35.84	34.1
9766	1001G	KGZ	Westkar-4	CS76629	74.16	42.26
9769	1001G	GER	HE-1	CS76916	8.99	48.55
9774	1001G	GER	Alt-1	CS76663	9.22	48.59
9775	1001G	GER	Berg-1	CS76701	8.79	48.41
9779	1001G	GER	Bai-10	CS76682	8.78	48.5
9781	1001G	GER	Kus2-2	CS76990	9.11	48.52
9782	1001G	GER	Lu3-30	CS77057	9.09	48.53
9784	1001G	GER	Erg2-6	CS76845	8.8	48.5
9803	1001G	GER	Müh-2	CS77113	8.76	48.42
9804	1001G	GER	Obe1-15	CS77139	8.87	48.45
9813	1001G	GER	BI-4	CS76706	8.77	48.4
9814	1001G	GER	Fell1-10	CS76855	8.79	48.42
9820	1001G	ESP	Are-0	CS76671	-4.71	41
9837	1001G	ESP	Con-0	CS76780	-5.6	37.94
9857	1001G	ESP	Leg-0	CS77019	-3.8	40.33
9879	1001G	ESP	Per-0	CS77169	-1.12	37.6
9910	1001G	FRA	BRI-2	CS76725	3.52	50.68
9920	1001G	FRA	DIR-9	CS76796	4.32	48.54
9921	1001G	FRA	FOR-23	CS76867	4.41	48.57
9925	1001G	FRA	RUM-20	CS77226	4.52	48.91
9933	1001G	FRA	VED-10	CS78839	3.89	43.74
9940	NA	NA	NA	NA	NA	NA
9941	1001G	POR	Fei-0	CS76412	-8.54	40.92
9944	1001G	ESP	Don-0	CS76411	-6.36	36.83
9947	1001G	ESP	Ped-0	CS76415	-3.9	40.74
9965	1001G	ITA	Mammo-2	CS76364	16.22	38.38
9966	1001G	ITA	Monte-1	CS76361	15.65	40.28
9977	NA	NA	NA	NA	NA	NA
9978	1001G	ITA	Vezzano-2.2	CS76350	10.82	46.63
9985	1001G	BUL	Slavi-1	CS76419	23.65	41.43
9992	NA	NA	NA	NA	NA	NA
10002	1001G	GER	TueWal-2	CS76405	9.04	48.53
10006	1001G	UKR	Kastel-1	CS76395	34.3814	44.6419
10011	1001G	ARM	Yeg-1	CS76394	45.3622	39.8692
10013	1001G	AZE	Lerik1-3	CS76388	48.6131	38.7406
10014	1001G	AZE	Xan-1	CS76387	48.7992	38.6536
